{
  "970": {
    "samples": 10332,
    "train_samples": 8265,
    "test_samples": 2067,
    "window_size": 12,
    "date_range": [
      "2006-10-01",
      "2006-10-31"
    ],
    "location": "BARRABOOL ROAD EAST BD WEST OF BELLE VUE AVENUE",
    "lat": -38.17140921018384,
    "lon": 144.32151849652757
  },
  "2000": {
    "samples": 9576,
    "train_samples": 7660,
    "test_samples": 1916,
    "window_size": 12,
    "date_range": [
      "2006-10-01",
      "2006-10-31"
    ],
    "location": null,
    "lat": null,
    "lon": null
  },
  "2200": {
    "samples": 10416,
    "train_samples": 8332,
    "test_samples": 2084,
    "window_size": 12,
    "date_range": [
      "2006-10-01",
      "2006-10-31"
    ],
    "location": "MORNINGTON PENINSULA LINK NBTWN SKYE RD & DANDENONG VALLEY HWY",
    "lat": -38.12890939563314,
    "lon": 145.17221169881572
  },
  "2820": {
    "samples": 5124,
    "train_samples": 4099,
    "test_samples": 1025,
    "window_size": 12,
    "date_range": [
      "2006-10-01",
      "2006-10-31"
    ],
    "location": "AYRESFORD RD BTWN TIMBOON-NULLAWARRE RD & COBDEN-WARRNAMBOOL RD",
    "lat": -38.43379898931014,
    "lon": 142.8561622493999
  },
  "2825": {
    "samples": 2604,
    "train_samples": 2083,
    "test_samples": 521,
    "window_size": 12,
    "date_range": [
      "2006-10-01",
      "2006-10-31"
    ],
    "location": "GREAT ALPINE RD S OF ANGORA RANGE RD @ 247.142KM FROM WANGARATTA",
    "lat": -37.49672633243739,
    "lon": 147.83792141021965
  },
  "2827": {
    "samples": 10416,
    "train_samples": 8332,
    "test_samples": 2084,
    "window_size": 12,
    "date_range": [
      "2006-10-01",
      "2006-10-31"
    ],
    "location": "ANAKIE RD S OF FURNER AV",
    "lat": -38.09787800003102,
    "lon": 144.33401510112918
  },
  "2846": {
    "samples": 10416,
    "train_samples": 8332,
    "test_samples": 2084,
    "window_size": 12,
    "date_range": [
      "2006-10-01",
      "2006-10-31"
    ],
    "location": null,
    "lat": null,
    "lon": null
  },
  "3001": {
    "samples": 7980,
    "train_samples": 6384,
    "test_samples": 1596,
    "window_size": 12,
    "date_range": [
      "2006-10-01",
      "2006-10-31"
    ],
    "location": "(BIKE PATH)GARDNERS CREEK TRAIL NO.2 2WAY ADJ ESTELLA ST",
    "lat": -37.86235948255075,
    "lon": 145.06346488402616
  },
  "3002": {
    "samples": 8736,
    "train_samples": 6988,
    "test_samples": 1748,
    "window_size": 12,
    "date_range": [
      "2006-10-01",
      "2006-10-31"
    ],
    "location": "SYDNEY RD S OF CAMP RD",
    "lat": -37.69060691632249,
    "lon": 144.95839997293797
  },
  "3120": {
    "samples": 10416,
    "train_samples": 8332,
    "test_samples": 2084,
    "window_size": 12,
    "date_range": [
      "2006-10-01",
      "2006-10-31"
    ],
    "location": "BOUNDARY RD N OF OLD DANDENONG RD DEPARTURE",
    "lat": -37.96544149619299,
    "lon": 145.11073842358834
  },
  "3122": {
    "samples": 7812,
    "train_samples": 6249,
    "test_samples": 1563,
    "window_size": 12,
    "date_range": [
      "2006-10-01",
      "2006-10-31"
    ],
    "location": "BARNARD ST & HOPE ST & PARK RD",
    "lat": -36.75217139870552,
    "lon": 144.27935339561628
  },
  "3126": {
    "samples": 7812,
    "train_samples": 6249,
    "test_samples": 1563,
    "window_size": 12,
    "date_range": [
      "2006-10-01",
      "2006-10-31"
    ],
    "location": "WARRANDYTE RD N OF RINGWOOD BYPASS DEPARTURE",
    "lat": -37.807626994570434,
    "lon": 145.2304877265179
  },
  "3127": {
    "samples": 6552,
    "train_samples": 5241,
    "test_samples": 1311,
    "window_size": 12,
    "date_range": [
      "2006-10-01",
      "2006-10-31"
    ],
    "location": "SPRINGVALE RD & WELLINGTON RD",
    "lat": -37.913866197467485,
    "lon": 145.15948741562158
  },
  "3180": {
    "samples": 7812,
    "train_samples": 6249,
    "test_samples": 1563,
    "window_size": 12,
    "date_range": [
      "2006-10-01",
      "2006-10-31"
    ],
    "location": "STH GIPPSLAND FWY OFF RAMPS TO N OF POUND RD DEPARTURE",
    "lat": -38.02403750647337,
    "lon": 145.2468818384126
  },
  "3662": {
    "samples": 10416,
    "train_samples": 8332,
    "test_samples": 2084,
    "window_size": 12,
    "date_range": [
      "2006-10-01",
      "2006-10-31"
    ],
    "location": "MIDLAND HIGHWAY EAST BD EAST OF GEELONG-BALLAN ROAD",
    "lat": -38.09737692012615,
    "lon": 144.30500844210908
  },
  "3682": {
    "samples": 9744,
    "train_samples": 7795,
    "test_samples": 1949,
    "window_size": 12,
    "date_range": [
      "2006-10-01",
      "2006-10-31"
    ],
    "location": "FORREST AV BTW PHILLIP ISLAND RD & ANDERSON ST",
    "lat": -38.51554285096245,
    "lon": 145.3595719440552
  },
  "3685": {
    "samples": 6972,
    "train_samples": 5577,
    "test_samples": 1395,
    "window_size": 12,
    "date_range": [
      "2006-10-01",
      "2006-10-31"
    ],
    "location": "MT DUNEED RD 202M BEFORE ANGLESEA RD",
    "lat": -38.24545432921405,
    "lon": 144.30520701683236
  },
  "3804": {
    "samples": 10416,
    "train_samples": 8332,
    "test_samples": 2084,
    "window_size": 12,
    "date_range": [
      "2006-10-01",
      "2006-10-31"
    ],
    "location": null,
    "lat": null,
    "lon": null
  },
  "3812": {
    "samples": 10416,
    "train_samples": 8332,
    "test_samples": 2084,
    "window_size": 12,
    "date_range": [
      "2006-10-01",
      "2006-10-31"
    ],
    "location": "INGLIS ST NE OF CALDER HWY DEPARTURE",
    "lat": -36.75967197805578,
    "lon": 144.24509147173137
  },
  "4030": {
    "samples": 7812,
    "train_samples": 6249,
    "test_samples": 1563,
    "window_size": 12,
    "date_range": [
      "2006-10-01",
      "2006-10-31"
    ],
    "location": "TANDARRA-SERPENTINE RD 500M BEFORE RLY XING EAGLEHAWK-PIANGIL",
    "lat": -36.42903464985864,
    "lon": 144.19607430026505
  },
  "4032": {
    "samples": 10416,
    "train_samples": 8332,
    "test_samples": 2084,
    "window_size": 12,
    "date_range": [
      "2006-10-01",
      "2006-10-31"
    ],
    "location": "MARLO ROAD SBTWN HEALEYS ROAD & UNNAMED",
    "lat": -37.79676778779391,
    "lon": 148.5436393959378
  },
  "4034": {
    "samples": 10416,
    "train_samples": 8332,
    "test_samples": 2084,
    "window_size": 12,
    "date_range": [
      "2006-10-01",
      "2006-10-31"
    ],
    "location": "EPPING-KILMORE ROAD BTWN HUME FREEWAY & HUME FREEWAY OFFRAMP",
    "lat": -37.35072136854089,
    "lon": 145.02152442155793
  },
  "4035": {
    "samples": 10416,
    "train_samples": 8332,
    "test_samples": 2084,
    "window_size": 12,
    "date_range": [
      "2006-10-01",
      "2006-10-31"
    ],
    "location": "CALDER HWY 150M S OF BLACKJACK RD",
    "lat": -37.096044890901496,
    "lon": 144.3266267152441
  },
  "4040": {
    "samples": 15624,
    "train_samples": 12499,
    "test_samples": 3125,
    "window_size": 12,
    "date_range": [
      "2006-10-01",
      "2006-10-31"
    ],
    "location": "SUNRAYSIA HIGHWAY BTWN SOUTH OF WARRACKNABEAL-BIRCHIP ROAD",
    "lat": -36.091339989923696,
    "lon": 142.88606173376468
  },
  "4043": {
    "samples": 10416,
    "train_samples": 8332,
    "test_samples": 2084,
    "window_size": 12,
    "date_range": [
      "2006-10-01",
      "2006-10-31"
    ],
    "location": "RIGGALL ST E OF RAILWAY CRES",
    "lat": -37.67565549557232,
    "lon": 144.92687320017717
  },
  "4051": {
    "samples": 7812,
    "train_samples": 6249,
    "test_samples": 1563,
    "window_size": 12,
    "date_range": [
      "2006-10-01",
      "2006-10-31"
    ],
    "location": "LAKE TYERS RD 100M S OF PRINCES HWY EAST",
    "lat": -37.87882249493188,
    "lon": 147.9853255036124
  },
  "4057": {
    "samples": 10248,
    "train_samples": 8198,
    "test_samples": 2050,
    "window_size": 12,
    "date_range": [
      "2006-10-01",
      "2006-10-31"
    ],
    "location": "GRAMPIANS RD BTWN UNNAMED & SILVERBAND RD",
    "lat": -37.18515177160449,
    "lon": 142.5442036642621
  },
  "4063": {
    "samples": 10416,
    "train_samples": 8332,
    "test_samples": 2084,
    "window_size": 12,
    "date_range": [
      "2006-10-01",
      "2006-10-31"
    ],
    "location": "BACK BEACH RD 100M E OF DOLPHIN DR",
    "lat": -38.49725913510818,
    "lon": 145.26350350630457
  },
  "4262": {
    "samples": 2184,
    "train_samples": 1747,
    "test_samples": 437,
    "window_size": 12,
    "date_range": [
      "2006-10-01",
      "2006-10-31"
    ],
    "location": "LYGON ST & PARK ST",
    "lat": -37.77547339918155,
    "lon": 144.97106131643434
  },
  "4263": {
    "samples": 8736,
    "train_samples": 6988,
    "test_samples": 1748,
    "window_size": 12,
    "date_range": [
      "2006-10-01",
      "2006-10-31"
    ],
    "location": "SMITH ST & VICTORIA PDE",
    "lat": -37.80637019184275,
    "lon": 144.98298640167678
  },
  "4264": {
    "samples": 9660,
    "train_samples": 7728,
    "test_samples": 1932,
    "window_size": 12,
    "date_range": [
      "2006-10-01",
      "2006-10-31"
    ],
    "location": "VICTORIA ST E OF JOHNSON ST DEPARTURE",
    "lat": -37.81056780660556,
    "lon": 145.00064120242828
  },
  "4266": {
    "samples": 10416,
    "train_samples": 8332,
    "test_samples": 2084,
    "window_size": 12,
    "date_range": [
      "2006-10-01",
      "2006-10-31"
    ],
    "location": "WESTERN RING RD NTH BND RAMPS N OF FURLONG RD DEPARTURE",
    "lat": -37.76461299534208,
    "lon": 144.8182604838968
  },
  "4270": {
    "samples": 10416,
    "train_samples": 8332,
    "test_samples": 2084,
    "window_size": 12,
    "date_range": [
      "2006-10-01",
      "2006-10-31"
    ],
    "location": "ANDERSON RD N OF FORREST ST DEPARTURE",
    "lat": -37.78287769466756,
    "lon": 144.82774104199737
  },
  "4272": {
    "samples": 7560,
    "train_samples": 6048,
    "test_samples": 1512,
    "window_size": 12,
    "date_range": [
      "2006-10-02",
      "2006-10-31"
    ],
    "location": "EPPING RD/HAYSTON BLVD/LYNDARUM DR",
    "lat": -37.62570849173902,
    "lon": 145.02833605301515
  },
  "4273": {
    "samples": 5208,
    "train_samples": 4166,
    "test_samples": 1042,
    "window_size": 12,
    "date_range": [
      "2006-10-01",
      "2006-10-31"
    ],
    "location": "ST GEORGES RD N OF NORMANBY AV DEPARTURE TURNS ONLY",
    "lat": -37.755243611426806,
    "lon": 144.99387364510198
  },
  "4321": {
    "samples": 10416,
    "train_samples": 8332,
    "test_samples": 2084,
    "window_size": 12,
    "date_range": [
      "2006-10-01",
      "2006-10-31"
    ],
    "location": "BURKE RD 30M AFTER WALBUNDRY DR",
    "lat": -37.79219979410884,
    "lon": 145.06422174032028
  },
  "4324": {
    "samples": 7812,
    "train_samples": 6249,
    "test_samples": 1563,
    "window_size": 12,
    "date_range": [
      "2006-10-01",
      "2006-10-31"
    ],
    "location": "DUNNE ST 50M AFTER WEDGE ST",
    "lat": -37.71317179728144,
    "lon": 145.03164590439735
  },
  "4335": {
    "samples": 5208,
    "train_samples": 4166,
    "test_samples": 1042,
    "window_size": 12,
    "date_range": [
      "2006-10-01",
      "2006-10-31"
    ],
    "location": "FRANKSTON-DANDENONG RD AT HALL RD",
    "lat": -38.10009160100914,
    "lon": 145.1722873005239
  },
  "4812": {
    "samples": 6552,
    "train_samples": 5241,
    "test_samples": 1311,
    "window_size": 12,
    "date_range": [
      "2006-10-01",
      "2006-10-31"
    ],
    "location": "PUCKLE ST/MOORE ST/MARGARET ST/HOLMES RD",
    "lat": -37.76615529417656,
    "lon": 144.9196290179559
  },
  "4821": {
    "samples": 10416,
    "train_samples": 8332,
    "test_samples": 2084,
    "window_size": 12,
    "date_range": [
      "2006-10-01",
      "2006-10-31"
    ],
    "location": "BURKE RD/COTHAM RD/WHITEHORSE RD",
    "lat": -37.80996370392904,
    "lon": 145.06076810973215
  }
}